[
 
  {
    "id": 1,
    "name": "Dr. Aarav Mehta",
    "specialty": "Cardiologist",
    "location": "Delhi",
    "lat": 28.6139,
    "lon": 77.2090,
    "fees": 500,
    "languages": ["English", "Hindi"],
    "verified": true,
    "experience": "10 years",
    "education": "MBBS, MD (Cardiology)",
    "image": "https://randomuser.me/api/portraits/men/10.jpg",
    "slots": ["10:00 AM", "12:30 PM", "4:00 PM"]
  },
  {
    "id": 2,
    "name": "Dr. Ananya Sharma",
    "specialty": "Dentist",
    "location": "Mumbai",
    "lat": 19.0760,
    "lon": 72.8777,
    "fees": 300,
    "languages": ["English", "Marathi", "Hindi"],
    "verified": true,
    "experience": "7 years",
    "education": "BDS, MDS",
    "image": "https://randomuser.me/api/portraits/women/11.jpg",
    "slots": ["9:30 AM", "1:00 PM", "3:30 PM"]
  },
  {
    "id": 3,
    "name": "Dr. Kabir Rao",
    "specialty": "Neurologist",
    "location": "Bangalore",
    "lat": 12.9716,
    "lon": 77.5946,
    "fees": 800,
    "languages": ["English", "Kannada", "Hindi"],
    "verified": true,
    "experience": "12 years",
    "education": "MBBS, DM (Neurology)",
    "image": "https://randomuser.me/api/portraits/men/12.jpg",
    "slots": ["11:00 AM", "2:00 PM", "6:00 PM"]
  },
  {
    "id": 4,
    "name": "Dr. Meera Desai",
    "specialty": "Gynecologist",
    "location": "Chennai",
    "lat": 13.0827,
    "lon": 80.2707,
    "fees": 400,
    "languages": ["English", "Tamil"],
    "verified": false,
    "experience": "5 years",
    "education": "MBBS, DGO",
    "image": "https://randomuser.me/api/portraits/women/13.jpg",
    "slots": ["10:00 AM", "1:30 PM", "5:00 PM"]
  },
  {
    "id": 5,
    "name": "Dr. Nikhil Sinha",
    "specialty": "Orthopedic",
    "location": "Kolkata",
    "lat": 22.5726,
    "lon": 88.3639,
    "fees": 600,
    "languages": ["Bengali", "English", "Hindi"],
    "verified": true,
    "experience": "9 years",
    "education": "MBBS, MS (Ortho)",
    "image": "https://randomuser.me/api/portraits/men/14.jpg",
    "slots": ["9:00 AM", "12:00 PM", "4:30 PM"]
  },
  {
    "id": 6,
    "name": "Dr. Priya Kapoor",
    "specialty": "Pediatrician",
    "location": "Pune",
    "lat": 18.5204,
    "lon": 73.8567,
    "fees": 450,
    "languages": ["English", "Marathi"],
    "verified": true,
    "experience": "6 years",
    "education": "MBBS, DCH",
    "image": "https://randomuser.me/api/portraits/women/15.jpg",
    "slots": ["10:30 AM", "1:00 PM", "4:30 PM"]
  },
  {
    "id": 7,
    "name": "Dr. Rohit Verma",
    "specialty": "Dermatologist",
    "location": "Ahmedabad",
    "lat": 23.0225,
    "lon": 72.5714,
    "fees": 550,
    "languages": ["English", "Gujarati", "Hindi"],
    "verified": true,
    "experience": "8 years",
    "education": "MBBS, MD (Dermatology)",
    "image": "https://randomuser.me/api/portraits/men/16.jpg",
    "slots": ["11:00 AM", "2:00 PM", "6:30 PM"]
  },
  {
    "id": 8,
    "name": "Dr. Aisha Khan",
    "specialty": "Psychiatrist",
    "location": "Hyderabad",
    "lat": 17.3850,
    "lon": 78.4867,
    "fees": 700,
    "languages": ["English", "Urdu", "Telugu"],
    "verified": true,
    "experience": "10 years",
    "education": "MBBS, MD (Psychiatry)",
    "image": "https://randomuser.me/api/portraits/women/17.jpg",
    "slots": ["9:30 AM", "1:30 PM", "5:00 PM"]
  },
  {
    "id": 9,
    "name": "Dr. Suresh Iyer",
    "specialty": "ENT Specialist",
    "location": "Kochi",
    "lat": 9.9312,
    "lon": 76.2673,
    "fees": 500,
    "languages": ["English", "Malayalam"],
    "verified": false,
    "experience": "4 years",
    "education": "MBBS, MS (ENT)",
    "image": "https://randomuser.me/api/portraits/men/18.jpg",
    "slots": ["10:00 AM", "12:30 PM", "4:00 PM"]
  },
  {
    "id": 10,
    "name": "Dr. Neha Joshi",
    "specialty": "Ophthalmologist",
    "location": "Jaipur",
    "lat": 26.9124,
    "lon": 75.7873,
    "fees": 450,
    "languages": ["Hindi", "English"],
    "verified": true,
    "experience": "6 years",
    "education": "MBBS, MS (Ophthalmology)",
    "image": "https://randomuser.me/api/portraits/women/19.jpg",
    "slots": ["9:00 AM", "11:30 AM", "3:00 PM"]
  }
]


